[
  {
    "id": "synqa-https-www-synqa-jp",
    "source": "OpenStreetMap (Overpass)",
    "name": "SYNQA",
    "url": "https://www.synqa.jp/",
    "category": "coworking",
    "address": "",
    "price_text": "",
    "description_raw": "",
    "lat": 35.6768627,
    "lon": 139.7704979
  },
  {
    "id": "shinjuku-travelers-coworking-3254711920",
    "source": "OpenStreetMap (Overpass)",
    "name": "SHINJUKU TRAVELERS COWORKING",
    "url": "",
    "category": "coworking",
    "address": "東京都新宿区新宿四丁目7",
    "price_text": "",
    "description_raw": "",
    "lat": 35.6883223,
    "lon": 139.7034814
  },
  {
    "id": "lodge-yahoo-japan-https-lodge-yahoo-co-jp",
    "source": "OpenStreetMap (Overpass)",
    "name": "LODGE (Yahoo! Japan)",
    "url": "https://lodge.yahoo.co.jp/",
    "category": "coworking",
    "address": "東京都千代田区紀尾井町1",
    "price_text": "",
    "description_raw": "",
    "lat": 35.6795452,
    "lon": 139.736962
  },
  {
    "id": "openoffice-forest-4945010311",
    "source": "OpenStreetMap (Overpass)",
    "name": "OpenOffice FOREST",
    "url": "",
    "category": "coworking",
    "address": "",
    "price_text": "",
    "description_raw": "",
    "lat": 35.7330638,
    "lon": 139.7171477
  },
  {
    "id": "ut-lab-https-ut-lab-toggle-co-jp",
    "source": "OpenStreetMap (Overpass)",
    "name": "UT-LAB",
    "url": "https://ut-lab.toggle.co.jp/",
    "category": "coworking",
    "address": "",
    "price_text": "",
    "description_raw": "",
    "lat": 35.7155463,
    "lon": 139.7585627
  },
  {
    "id": "nerima-base-ネリマベース-https-nerima-base-tokyo",
    "source": "OpenStreetMap (Overpass)",
    "name": "Nerima Base - ネリマベース",
    "url": "https://nerima-base.tokyo",
    "category": "coworking",
    "address": "東京都練馬区練馬一丁目2",
    "price_text": "",
    "description_raw": "",
    "lat": 35.738332,
    "lon": 139.6550533
  },
  {
    "id": "koca-8481307546",
    "source": "OpenStreetMap (Overpass)",
    "name": "KOCA",
    "url": "",
    "category": "coworking",
    "address": "",
    "price_text": "",
    "description_raw": "",
    "lat": 35.5679713,
    "lon": 139.7290871
  },
  {
    "id": "waw-kanda-9081206096",
    "source": "OpenStreetMap (Overpass)",
    "name": "WAW KANDA",
    "url": "",
    "category": "coworking",
    "address": "",
    "price_text": "",
    "description_raw": "",
    "lat": 35.6921877,
    "lon": 139.7719018
  },
  {
    "id": "tent成瀬-9258826844",
    "source": "OpenStreetMap (Overpass)",
    "name": "TENT成瀬",
    "url": "",
    "category": "coworking",
    "address": "",
    "price_text": "",
    "description_raw": "",
    "lat": 35.5363228,
    "lon": 139.4735728
  },
  {
    "id": "bizcomfort-kanamachi-9328580195",
    "source": "OpenStreetMap (Overpass)",
    "name": "BIZcomfort Kanamachi",
    "url": "",
    "category": "coworking",
    "address": "",
    "price_text": "",
    "description_raw": "",
    "lat": 35.7700324,
    "lon": 139.8726149
  },
  {
    "id": "co-ba調布-9572331024",
    "source": "OpenStreetMap (Overpass)",
    "name": "Co-ba調布",
    "url": "",
    "category": "coworking",
    "address": "",
    "price_text": "",
    "description_raw": "",
    "lat": 35.650808,
    "lon": 139.5430141
  },
  {
    "id": "コワーキング喫茶-cosoadot-10268039495",
    "source": "OpenStreetMap (Overpass)",
    "name": "コワーキング喫茶 cosoadot",
    "url": "",
    "category": "coworking",
    "address": "",
    "price_text": "",
    "description_raw": "",
    "lat": 35.5217915,
    "lon": 139.4695788
  },
  {
    "id": "bizcomfort大森山王-10593653181",
    "source": "OpenStreetMap (Overpass)",
    "name": "BIZcomfort大森山王",
    "url": "",
    "category": "coworking",
    "address": "",
    "price_text": "",
    "description_raw": "",
    "lat": 35.5906372,
    "lon": 139.72762
  },
  {
    "id": "bizcomfort-ザ-ロイヤルパークホテル-アイコニック-東京汐留-10595665235",
    "source": "OpenStreetMap (Overpass)",
    "name": "BIZcomfort ザ ロイヤルパークホテル アイコニック 東京汐留",
    "url": "",
    "category": "coworking",
    "address": "",
    "price_text": "",
    "description_raw": "",
    "lat": 35.6644254,
    "lon": 139.7606693
  },
  {
    "id": "aws-startup-loft-tokyo-https-aws-startup-lofts-com-apj-loft-tokyo",
    "source": "OpenStreetMap (Overpass)",
    "name": "AWS Startup Loft Tokyo",
    "url": "https://aws-startup-lofts.com/apj/loft/tokyo",
    "category": "coworking",
    "address": "",
    "price_text": "",
    "description_raw": "",
    "lat": 35.6333592,
    "lon": 139.716409
  },
  {
    "id": "bizcomfort亀戸-https-bizcomfort-jp-tokyo-kameido-html",
    "source": "OpenStreetMap (Overpass)",
    "name": "BIZcomfort亀戸",
    "url": "https://bizcomfort.jp/tokyo/kameido.html",
    "category": "coworking",
    "address": "",
    "price_text": "",
    "description_raw": "",
    "lat": 35.698322,
    "lon": 139.8276544
  },
  {
    "id": "wework-10696643139",
    "source": "OpenStreetMap (Overpass)",
    "name": "WeWork",
    "url": "",
    "category": "coworking",
    "address": "",
    "price_text": "yes",
    "description_raw": "",
    "lat": 35.6839752,
    "lon": 139.7407952
  },
  {
    "id": "root-root-10842145313",
    "source": "OpenStreetMap (Overpass)",
    "name": "Root Root",
    "url": "",
    "category": "coworking",
    "address": "",
    "price_text": "",
    "description_raw": "",
    "lat": 35.6760759,
    "lon": 139.7363839
  },
  {
    "id": "h1t-11158391144",
    "source": "OpenStreetMap (Overpass)",
    "name": "H1T",
    "url": "",
    "category": "coworking",
    "address": "",
    "price_text": "",
    "description_raw": "",
    "lat": 35.6988208,
    "lon": 139.7642319
  },
  {
    "id": "wework-11269005859",
    "source": "OpenStreetMap (Overpass)",
    "name": "WeWork",
    "url": "",
    "category": "coworking",
    "address": "",
    "price_text": "",
    "description_raw": "",
    "lat": 35.6841833,
    "lon": 139.7338598
  },
  {
    "id": "スマートレンタルスペース四谷-11269005861",
    "source": "OpenStreetMap (Overpass)",
    "name": "スマートレンタルスペース四谷",
    "url": "",
    "category": "coworking",
    "address": "",
    "price_text": "",
    "description_raw": "",
    "lat": 35.6862001,
    "lon": 139.7275536
  },
  {
    "id": "ことりば-https-kotoriba-csplace-com",
    "source": "OpenStreetMap (Overpass)",
    "name": "ことりば",
    "url": "https://kotoriba.csplace.com/",
    "category": "coworking",
    "address": "アミュービル4階",
    "price_text": "",
    "description_raw": "",
    "lat": 35.772219,
    "lon": 139.5211217
  },
  {
    "id": "ザ-ゴーストレストラン-https-www-theghostrestaurant-tokyo",
    "source": "OpenStreetMap (Overpass)",
    "name": "ザ・ゴーストレストラン",
    "url": "https://www.theghostrestaurant.tokyo/",
    "category": "coworking",
    "address": "",
    "price_text": "",
    "description_raw": "",
    "lat": 35.7011897,
    "lon": 139.7518531
  },
  {
    "id": "明大前コワーキングスペース-11690008149",
    "source": "OpenStreetMap (Overpass)",
    "name": "明大前コワーキングスペース",
    "url": "",
    "category": "coworking",
    "address": "",
    "price_text": "",
    "description_raw": "",
    "lat": 35.6677979,
    "lon": 139.6502459
  },
  {
    "id": "remoteworkbox-ビズボ渋谷宮益坂-https-remotework-box-jp-facility-v0kv5asdyyyktjgooslpm5gcdwq3rgkl",
    "source": "OpenStreetMap (Overpass)",
    "name": "RemoteworkBOX ビズボ渋谷宮益坂",
    "url": "https://remotework-box.jp/facility/v0kV5AsDyyyktJgOOSlPm5GcDwq3RgKL",
    "category": "coworking",
    "address": "東京都渋谷区渋谷一丁目12",
    "price_text": "",
    "description_raw": "",
    "lat": 35.6600725,
    "lon": 139.7043949
  },
  {
    "id": "wework-https-wework-co-jp-location-tokyo-harumi-area-daiwa-harumi",
    "source": "OpenStreetMap (Overpass)",
    "name": "WeWork",
    "url": "https://wework.co.jp/location/tokyo/harumi-area/daiwa-harumi",
    "category": "coworking",
    "address": "東京都中央区晴海三丁目1",
    "price_text": "yes",
    "description_raw": "",
    "lat": 35.6539685,
    "lon": 139.7791657
  },
  {
    "id": "solotime-八王子-12025581816",
    "source": "OpenStreetMap (Overpass)",
    "name": "SoloTime 八王子",
    "url": "",
    "category": "coworking",
    "address": "",
    "price_text": "",
    "description_raw": "",
    "lat": 35.6580713,
    "lon": 139.3391266
  },
  {
    "id": "h1t-12240814890",
    "source": "OpenStreetMap (Overpass)",
    "name": "H1T",
    "url": "",
    "category": "coworking",
    "address": "",
    "price_text": "",
    "description_raw": "",
    "lat": 35.6993934,
    "lon": 139.764919
  },
  {
    "id": "share-lounge-shibuya-sakura-stage-https-www-sharelounge-jp-store-2334",
    "source": "OpenStreetMap (Overpass)",
    "name": "SHARE LOUNGE Shibuya Sakura Stage",
    "url": "https://www.sharelounge.jp/store/2334",
    "category": "coworking",
    "address": "東京都渋谷区桜丘町4",
    "price_text": "",
    "description_raw": "",
    "lat": 35.6570758,
    "lon": 139.7017531
  },
  {
    "id": "wework-https-wework-co-jp-location-tokyo-shibuya-aoyama-area-shibuya-scramble-square-utm-source-google-utm-campaign-organic-utm-medium-listings",
    "source": "OpenStreetMap (Overpass)",
    "name": "WeWork",
    "url": "https://wework.co.jp/location/tokyo/shibuya-aoyama-area/shibuya-scramble-square?utm_source=Google&utm_campaign=Organic&utm_medium=Listings",
    "category": "coworking",
    "address": "東京都渋谷区渋谷二丁目",
    "price_text": "yes",
    "description_raw": "",
    "lat": 35.6584562,
    "lon": 139.7022021
  },
  {
    "id": "work-12487590018",
    "source": "OpenStreetMap (Overpass)",
    "name": "Work",
    "url": "",
    "category": "coworking",
    "address": "",
    "price_text": "",
    "description_raw": "",
    "lat": 35.6837336,
    "lon": 139.7408297
  },
  {
    "id": "アクセアカフェ-12546074087",
    "source": "OpenStreetMap (Overpass)",
    "name": "アクセアカフェ",
    "url": "",
    "category": "coworking",
    "address": "",
    "price_text": "",
    "description_raw": "",
    "lat": 35.667017,
    "lon": 139.7587302
  },
  {
    "id": "tokyo-bitcoin-base-https-tokyobitcoin-space",
    "source": "OpenStreetMap (Overpass)",
    "name": "Tokyo Bitcoin Base",
    "url": "https://tokyobitcoin.space/",
    "category": "coworking",
    "address": "",
    "price_text": "",
    "description_raw": "",
    "lat": 35.6889533,
    "lon": 139.7286142
  },
  {
    "id": "olive-lounge-下高井戸店-12848306810",
    "source": "OpenStreetMap (Overpass)",
    "name": "Olive LOUNGE 下高井戸店",
    "url": "",
    "category": "coworking",
    "address": "",
    "price_text": "",
    "description_raw": "",
    "lat": 35.6659266,
    "lon": 139.6409799
  },
  {
    "id": "the-bloom-12855267621",
    "source": "OpenStreetMap (Overpass)",
    "name": "THE BLOOM",
    "url": "",
    "category": "coworking",
    "address": "",
    "price_text": "",
    "description_raw": "",
    "lat": 35.7109284,
    "lon": 139.7774916
  },
  {
    "id": "h1t-12953576370",
    "source": "OpenStreetMap (Overpass)",
    "name": "H1T",
    "url": "",
    "category": "coworking",
    "address": "",
    "price_text": "",
    "description_raw": "",
    "lat": 35.6994089,
    "lon": 139.7649232
  },
  {
    "id": "spaces-13031016428",
    "source": "OpenStreetMap (Overpass)",
    "name": "Spaces",
    "url": "",
    "category": "coworking",
    "address": "",
    "price_text": "",
    "description_raw": "",
    "lat": 35.6644707,
    "lon": 139.730481
  },
  {
    "id": "solotime-13108097621",
    "source": "OpenStreetMap (Overpass)",
    "name": "SoloTime",
    "url": "",
    "category": "coworking",
    "address": "",
    "price_text": "",
    "description_raw": "",
    "lat": 35.7315552,
    "lon": 139.7127928
  },
  {
    "id": "tokyo-innovation-base-https-tib-metro-tokyo-lg-jp",
    "source": "OpenStreetMap (Overpass)",
    "name": "Tokyo Innovation Base",
    "url": "https://tib.metro.tokyo.lg.jp/",
    "category": "coworking",
    "address": "",
    "price_text": "",
    "description_raw": "",
    "lat": 35.6755586,
    "lon": 139.7650418
  },
  {
    "id": "tkp-13232507370",
    "source": "OpenStreetMap (Overpass)",
    "name": "TKP",
    "url": "",
    "category": "coworking",
    "address": "",
    "price_text": "",
    "description_raw": "",
    "lat": 35.6591239,
    "lon": 139.704431
  },
  {
    "id": "h1t日本橋-13269464957",
    "source": "OpenStreetMap (Overpass)",
    "name": "H1T日本橋",
    "url": "",
    "category": "coworking",
    "address": "",
    "price_text": "",
    "description_raw": "",
    "lat": 35.6836626,
    "lon": 139.7730417
  },
  {
    "id": "zxy-13299244311",
    "source": "OpenStreetMap (Overpass)",
    "name": "ZXY",
    "url": "",
    "category": "coworking",
    "address": "",
    "price_text": "",
    "description_raw": "",
    "lat": 35.6879758,
    "lon": 139.8001638
  },
  {
    "id": "名称不明-13310375652",
    "source": "OpenStreetMap (Overpass)",
    "name": "名称不明",
    "url": "",
    "category": "coworking",
    "address": "",
    "price_text": "",
    "description_raw": "",
    "lat": 35.7727295,
    "lon": 139.5181314
  },
  {
    "id": "t-square-13431598174",
    "source": "OpenStreetMap (Overpass)",
    "name": "T-Square",
    "url": "",
    "category": "coworking",
    "address": "",
    "price_text": "",
    "description_raw": "",
    "lat": 35.6532549,
    "lon": 139.7556776
  },
  {
    "id": "station-desk-グランスタ丸の内-1466650634",
    "source": "OpenStreetMap (Overpass)",
    "name": "STATION DESK グランスタ丸の内",
    "url": "",
    "category": "coworking",
    "address": "",
    "price_text": "",
    "description_raw": "",
    "lat": 35.6808093,
    "lon": 139.7648716
  },
  {
    "id": "station-desk-グランスタ丸の内-1466650636",
    "source": "OpenStreetMap (Overpass)",
    "name": "STATION DESK グランスタ丸の内",
    "url": "",
    "category": "coworking",
    "address": "",
    "price_text": "",
    "description_raw": "",
    "lat": 35.6807812,
    "lon": 139.7645276
  }
]